[
  { "id": "elcairo", "name": "El Cairo", "type": "bar", "lat": -32.9450198, "lng": -60.6379576 },
  { "id": "theclub", "name": "The Club", "type": "restaurant", "lat": -32.9460359, "lng": -60.6480806 },
  { "id": "hoxton", "name": "Hoxton House", "type": "bar", "lat": -32.9576484, "lng": -60.6401811 },
  { "id": "brooklyn", "name": "Brooklyn | Crafters' Garden", "type": "bar", "lat": -32.9412465, "lng": -60.6396895 },
  { "id": "elpatio", "name": "El Patio Multiespacio", "type": "bar", "lat": -32.9497944, "lng": -60.647806 },
  { "id": "craft", "name": "CRAFT", "type": "bar", "lat": -32.9574577, "lng": -60.6389648 },
  { "id": "manush", "name": "Manush Rosario", "type": "bar", "lat": -32.9328069, "lng": -60.6523911 },
  { "id": "granlago", "name": "Gran Lago - Resto Bar", "type": "restaurant", "lat": -32.955596, "lng": -60.6585203 },
  { "id": "losjardines", "name": "Los Jardines", "type": "restaurant", "lat": -32.934148, "lng": -60.6433216 },
  { "id": "riomio", "name": "Riomío", "type": "restaurant", "lat": -32.933136, "lng": -60.6464189 },
  { "id": "wembley", "name": "Wembley", "type": "restaurant", "lat": -32.9647649, "lng": -60.6217325 },
  { "id": "rockfellers", "name": "Rock&Feller's Savoy", "type": "restaurant", "lat": -32.9446607, "lng": -60.636258 },
  { "id": "escauriza", "name": "Escauriza Parrilla", "type": "restaurant", "lat": -32.880531, "lng": -60.6883401 },
  { "id": "donferro", "name": "Parrilla Don Ferro", "type": "restaurant", "lat": -32.9343572, "lng": -60.6435197 },
  { "id": "rooftop", "name": "Rooftop", "type": "bar", "lat": -32.9320322, "lng": -60.6636827 },
  { "id": "roxy", "name": "Roxy Club Rosario", "type": "boliche", "lat": -32.9310926, "lng": -60.657733 },
  { "id": "decada", "name": "Década Disco", "type": "boliche", "lat": -32.9364977, "lng": -60.6697425 },
  { "id": "bound", "name": "Bound", "type": "boliche", "lat": -32.9364439, "lng": -60.6516674 },
  { "id": "switch", "name": "Switch Club", "type": "boliche", "lat": -32.939125, "lng": -60.6506263 },
  { "id": "lotus", "name": "Lotus Night Club", "type": "boliche", "lat": -32.9292618, "lng": -60.6713676 },
  { "id": "manushcentro", "name": "Manush Centro", "type": "bar", "lat": -32.9445, "lng": -60.6425 },
  { "id": "unr_rectorado", "name": "UNR Rectorado", "type": "educativo", "lat": -32.9468, "lng": -60.6393 },
  { "id": "unr_derecho", "name": "UNR Facultad de Derecho", "type": "educativo", "lat": -32.9447, "lng": -60.6485 },
  { "id": "unr_economicas", "name": "UNR Ciencias Económicas", "type": "educativo", "lat": -32.9521, "lng": -60.6537 },
  { "id": "unr_medicina", "name": "UNR Facultad de Medicina", "type": "educativo", "lat": -32.9486, "lng": -60.6595 },
  { "id": "utn_rosario", "name": "UTN Facultad Regional Rosario", "type": "educativo", "lat": -32.9466, "lng": -60.6432 },
  { "id": "austral_rosario", "name": "Universidad Austral Rosario", "type": "educativo", "lat": -32.9398, "lng": -60.6470 },
  { "id": "uca_rosario", "name": "UCA Rosario", "type": "educativo", "lat": -32.9585, "lng": -60.6680 },
  { "id": "uai_rosario", "name": "UAI Rosario", "type": "educativo", "lat": -32.9530, "lng": -60.6510 },
  { "id": "ips_rosario", "name": "Instituto Politécnico Superior UNR", "type": "educativo", "lat": -32.9466, "lng": -60.6360 },
  { "id": "superior_comercio", "name": "Escuela Superior de Comercio UNR", "type": "educativo", "lat": -32.9495, "lng": -60.6360 },
  { "id": "normal_1", "name": "Escuela Normal Superior N°1 Avellaneda", "type": "educativo", "lat": -32.9479, "lng": -60.6386 },
  { "id": "normal_2", "name": "Escuela Normal N°2 J. M. Gutiérrez", "type": "educativo", "lat": -32.9490, "lng": -60.6470 },
  { "id": "lasalle", "name": "Colegio La Salle Rosario", "type": "educativo", "lat": -32.9520, "lng": -60.6560 },
  { "id": "inmaculada", "name": "Colegio Inmaculada Concepción Rosario", "type": "educativo", "lat": -32.9430, "lng": -60.6420 },
  { "id": "sanbartolome", "name": "Colegio San Bartolomé Rosario", "type": "educativo", "lat": -32.9550, "lng": -60.6580 },
  { "id": "dante", "name": "Colegio Dante Alighieri Rosario", "type": "educativo", "lat": -32.9505, "lng": -60.6500 },
  { "id": "central", "name": "Club Atlético Rosario Central", "type": "deportivo", "lat": -32.9080, "lng": -60.6303 },
  { "id": "newells", "name": "Club Atlético Newell's Old Boys", "type": "deportivo", "lat": -32.9582, "lng": -60.6655 },
  { "id": "regatas", "name": "Club de Regatas Rosario", "type": "deportivo", "lat": -32.9286, "lng": -60.6281 },
  { "id": "gimnasia_ros", "name": "Club Gimnasia y Esgrima de Rosario", "type": "deportivo", "lat": -32.9499, "lng": -60.6790 },
  { "id": "provincial", "name": "Club Atlético Provincial Rosario", "type": "deportivo", "lat": -32.9618, "lng": -60.6520 },
  { "id": "plaza_jewell", "name": "Club Atlético del Rosario Plaza Jewell", "type": "deportivo", "lat": -32.9466, "lng": -60.6700 },
  { "id": "nautico_ave", "name": "Club Náutico Avellaneda Rosario", "type": "deportivo", "lat": -32.8830, "lng": -60.6960 },
  { "id": "megatlon", "name": "Megatlón Rosario", "type": "deportivo", "lat": -32.9445, "lng": -60.6390 },
  { "id": "sportclub", "name": "SportClub Rosario", "type": "deportivo", "lat": -32.9486, "lng": -60.6470 },
  { "id": "always_ready", "name": "Always Ready Gym Rosario", "type": "deportivo", "lat": -32.9412, "lng": -60.6520 },
  { "id": "cc_fontanarrosa", "name": "Centro Cultural Roberto Fontanarrosa", "type": "cultural", "lat": -32.9476, "lng": -60.6304 },
  { "id": "cc_parque_espana", "name": "Centro Cultural Parque de España", "type": "cultural", "lat": -32.9407, "lng": -60.6283 },
  { "id": "cc_lavarden", "name": "Plataforma Lavardén", "type": "cultural", "lat": -32.9519, "lng": -60.6361 },
  { "id": "cec", "name": "Centro de Expresiones Contemporáneas CEC Rosario", "type": "cultural", "lat": -32.9268, "lng": -60.6286 },
  { "id": "cc_la_toma", "name": "Centro Cultural La Toma Rosario", "type": "cultural", "lat": -32.9543, "lng": -60.6533 },
  { "id": "distrito_siete", "name": "Distrito Siete Rosario", "type": "cultural", "lat": -32.9606, "lng": -60.6486 },
  { "id": "cc_lumiere", "name": "Centro Cultural Cine Lumière Rosario", "type": "cultural", "lat": -32.9486, "lng": -60.6340 },
  { "id": "hosp_centenario", "name": "Hospital Provincial del Centenario Rosario", "type": "salud", "lat": -32.938543, "lng": -60.664759 },
  { "id": "heca", "name": "Hospital de Emergencias Dr. Clemente Álvarez HECA", "type": "salud", "lat": -32.952783, "lng": -60.670521 },
  { "id": "hosp_provincial", "name": "Hospital Provincial de Rosario", "type": "salud", "lat": -32.956172, "lng": -60.63106 },
  { "id": "hosp_italiano", "name": "Hospital Italiano Garibaldi Rosario", "type": "salud", "lat": -32.970095, "lng": -60.646303 },
  { "id": "hosp_espanol", "name": "Hospital Español Rosario", "type": "salud", "lat": -32.973801, "lng": -60.645766 },
  { "id": "sanatorio_parque", "name": "Sanatorio Parque Rosario", "type": "salud", "lat": -32.944263, "lng": -60.653745 },
  { "id": "sanatorio_ninos", "name": "Sanatorio de Niños Rosario", "type": "salud", "lat": -32.944224, "lng": -60.654669 },
  { "id": "terminal", "name": "Terminal de Ómnibus Mariano Moreno Rosario", "type": "transporte", "lat": -32.9606, "lng": -60.6790 },
  { "id": "est_rosario_norte", "name": "Estación Rosario Norte", "type": "transporte", "lat": -32.930733, "lng": -60.657531 },
  { "id": "aeropuerto", "name": "Aeropuerto Internacional de Rosario Islas Malvinas", "type": "transporte", "lat": -32.9036, "lng": -60.7846 },
  { "id": "palacio_leones", "name": "Municipalidad de Rosario Palacio de los Leones", "type": "gobierno", "lat": -32.947129, "lng": -60.632202 },
  { "id": "concejo", "name": "Concejo Municipal de Rosario", "type": "gobierno", "lat": -32.9483, "lng": -60.63011 },
  { "id": "parque_independencia", "name": "Parque Independencia Rosario", "type": "verde", "lat": -32.9636, "lng": -60.6755 },
  { "id": "parque_urquiza", "name": "Parque Urquiza Rosario", "type": "verde", "lat": -32.957749, "lng": -60.623346 },
  { "id": "parque_italia", "name": "Parque Italia Rosario", "type": "verde", "lat": -32.97208, "lng": -60.624632 },
  { "id": "plaza_montenegro", "name": "Plaza Montenegro Rosario", "type": "verde", "lat": -32.9476, "lng": -60.6386 }
]
